$GNGGA,032004.200,3117.0165470,N,12109.6267346,E,5,23,0.69,23.886,M,9.010,M,28.8,0010*67
$GNGGA,032004.400,3117.0165470,N,12109.6267346,E,5,23,0.69,23.886,M,9.010,M,28.8,0010*61
$GNGGA,032004.600,3117.0165407,N,12109.6267275,E,5,23,0.69,23.887,M,9.010,M,28.8,0010*63
$GNGGA,032004.800,3117.0165342,N,12109.6267206,E,5,23,0.69,23.889,M,9.010,M,28.8,0010*61
$GNGGA,032005.000,3117.0165277,N,12109.6267135,E,5,23,0.69,23.891,M,9.010,M,29.8,0010*64
$GNGGA,032005.200,3117.0165213,N,12109.6267066,E,5,23,0.69,23.892,M,9.010,M,29.8,0010*60
$GNGGA,032005.400,3117.0165191,N,12109.6267048,E,5,23,0.69,23.892,M,9.010,M,29.8,0010*63
$GNGGA,032005.600,3117.0165104,N,12109.6266959,E,5,23,0.69,23.894,M,9.010,M,29.8,0010*63
$GNGGA,032005.800,3117.0165017,N,12109.6266872,E,5,23,0.69,23.896,M,9.010,M,29.8,0010*64
$GNGGA,032006.000,3117.0164930,N,12109.6266785,E,5,23,0.69,23.897,M,9.010,M,30.8,0010*6C
$GNGGA,032006.200,3117.0164843,N,12109.6266696,E,5,23,0.69,23.899,M,9.010,M,30.8,0010*66
$GNGGA,032006.400,3117.0164777,N,12109.6266628,E,5,23,0.69,23.903,M,9.010,M,30.8,0010*6F
$GNGGA,032006.600,3117.0164711,N,12109.6266559,E,5,23,0.69,23.908,M,9.010,M,30.8,0010*63
$GNGGA,032006.800,3117.0164644,N,12109.6266492,E,5,23,0.69,23.912,M,9.010,M,30.8,0010*61
$GNGGA,032007.000,3117.0164578,N,12109.6266424,E,5,23,0.69,23.916,M,9.010,M,0.8,0010*5E
$GNGGA,032007.200,3117.0164510,N,12109.6266357,E,5,23,0.69,23.921,M,9.010,M,0.8,0010*55
$GNGGA,032007.400,3117.0164894,N,12109.6266708,E,5,23,0.69,23.888,M,9.010,M,0.8,0010*5E
$GNGGA,032007.600,3117.0165277,N,12109.6267061,E,5,23,0.69,23.856,M,9.010,M,0.8,0010*50
$GNGGA,032007.800,3117.0165660,N,12109.6267414,E,5,23,0.69,23.824,M,9.010,M,0.8,0010*5F
$GNGGA,032008.000,3117.0166044,N,12109.6267766,E,5,23,0.69,23.791,M,9.010,M,0.8,0010*5C
7.0168872,N,12109.6275518,E,5,24,0.73,24.508,M,9.010,M,0.8,0010*59
$GNGGA,031934.400,3117.0168885,N,12109.6274926,E,5,24,0.73,24.549,M,9.010,M,0.8,0010*52
$GNGGA,031934.600,3117.0168898,N,12109.6274334,E,5,24,0.73,24.590,M,9.010,M,0.8,0010*51
$GNGGA,031934.800,3117.0168910,N,12109.6273741,E,5,24,0.73,24.631,M,9.010,M,0.8,0010*57
$GNGGA,031935.000,3117.0168923,N,12109.6273148,E,5,24,0.73,24.673,M,9.010,M,0.8,0010*57
$GNGGA,031935.200,3117.0168936,N,12109.6272555,E,5,24,0.73,24.714,M,9.010,M,0.8,0010*58
$GNGGA,031935.400,3117.0168918,N,12109.6271951,E,5,24,0.73,24.747,M,9.010,M,0.8,0010*5F
3117.0167945,N,12109.6284924,E,1,24,0.73,23.752,M,9.010,M,,*75
$GNGGA,031916.200,3117.0167958,N,12109.6284936,E,1,24,0.73,23.752,M,9.010,M,,*78
,E,0,00,,11.848,M,0.000,M,,*63
$GNGGA,083709.400,3117.0455945,N,12109.6340294,E,0,00,,11.848,M,0.000,M,,*65
$GNGGA,083709.600,3117.0455945,N,12109.6340294,E,0,00,,11.848,M,0.000,M,,*67
$GNGGA,083709.800,3117.0455945,N,12109.6340294,E,0,00,,11.848,M,0.000,M,,*69
$GNGGA,083710.000,3117.0455945,N,12109.6340294,E,0,00,,11.848,M,0.000,M,,*69
$GNGGA,083710.200,3117.0455945,N,12109.6340294,E,0,00,,11.848,M,0.000,M,,*6B
$GNGGA,083710.400,3117.0455945,N,12109.6340294,E,0,00,,11.848,M,0.000,M,,*6D
$GNGGA,083710.600,3117.0455945,N,12109.6340294,E,0,00,,11.848,M,0.000,M,,*6F
$GNGGA,083710.800,3117.0455945,N,12109.6340294,E,0,00,,11.848,M,0.000,M,,*61
$GNGGA,083711.000,3117.0455945,N,12109.6340294,E,0,00,,11.848,M,0.000,M,,*68
$GNGGA,083711.200,3117.0455945,N,12109.6340294,E,0,00,,11.848,M,0.000,M,,*6A
$GNGGA,083711.400,3117.0455945,N,12109.6340294,E,0,00,,11.848,M,0.000,M,,*6C
$GNGGA,083711.600,3117.0455945,N,12109.6340294,E,0,00,,11.848,M,0.000,M,,*6E
$GNGGA,083711.800,3117.0455945,N,12109.6340294,E,0,00,,11.848,M,0.000,M,,*60
$GNGGA,083712.000,3117.0455945,N,12109.6340294,E,0,00,,11.848,M,0.000,M,,*6B
$GNGGA,083712.200,3117.0455945,N,12109.6340294,E,0,00,,11.848,M,0.000,M,,*69
$GNGGA,083712.400,3117.0455945,N,12109.6340294,E,0,00,,11.848,M,0.000,M,,*6F
$GNGGA,083712.600,3117.0455945,N,12109.6340294,E,0,00,,11.848,M,0.000,M,,*6D
$GNGGA,083712.800,3117.0455945,N,12109.6340294,E,0,00,,11.848,M,0.000,M,,*63
$GNGGA,083713.000,3117.0455945,N,12109.6340294,E,0,00,,11.848,M,0.000,M,,*6A
$GNGGA,083713.200,3117.0455945,N,12109.6340294,E,0,00,,11.848,M,0.000,M,,*68
$GNGGA,083713.400,3117.0455945,N,12109.6340294,E,0,00,,11.848,M,0.000,M,,*6E
$GNGGA,083713.600,3117.0455945,N,12109.6340294,E,0,00,,11.848,M,0.000,M,,*6C
$GNGGA,083713.800,3117.0455945,N,12109.6340294,E,0,00,,11.848,M,0.000,M,,*62
$GNGGA,083714.000,3117.0455945,N,12109.6340294,E,0,00,,11.848,M,0.000,M,,*6D
$GNGGA,083714.200,3117.0455945,N,12109.6340294,E,0,00,,11.848,M,0.000,M,,*6F
$GNGGA,083714.400,3117.0455945,N,12109.6340294,E,0,00,,11.848,M,0.000,M,,*69
$GNGGA,083714.600,3117.0455945,N,12109.6340294,E,0,00,,11.848,M,0.000,M,,*6B
$GNGGA,083714.800,3117.0455945,N,12109.6340294,E,0,00,,11.848,M,0.000,M,,*65
$GNGGA,083715.000,3117.0455945,N,12109.6340294,E,0,00,,11.848,M,0.000,M,,*6C
$GNGGA,083715.200,3117.0455945,N,12109.6340294,E,0,00,,11.848,M,0.000,M,,*6E
$GNGGA,083715.400,3117.0455945,N,12109.6340294,E,0,00,,11.848,M,0.000,M,,*68
$GNGGA,083715.600,3117.0455945,N,12109.6340294,E,0,00,,11.848,M,0.000,M,,*6A
$GNGGA,083715.800,3117.0455945,N,12109.6340294,E,0,00,,11.848,M,0.000,M,,*64
$GNGGA,083716.000,3117.0455945,N,12109.6340294,E,0,00,,11.848,M,0.000,M,,*6F
$GNGGA,083716.200,3117.0455945,N,12109.6340294,E,0,00,,11.848,M,0.000,M,,*6D
$GNGGA,083716.400,3117.0455945,N,12109.6340294,E,0,00,,11.848,M,0.000,M,,*6B
$GNGGA,083716.600,3117.0455945,N,12109.6340294,E,0,00,,11.848,M,0.000,M,,*69
$GNGGA,083716.800,3117.0455945,N,12109.6340294,E,0,00,,11.848,M,0.000,M,,*67
$GNGGA,083717.000,3117.0455945,N,12109.6340294,E,0,00,,11.848,M,0.000,M,,*6E
$GNGGA,083717.200,3117.0455945,N,12109.6340294,E,0,00,,11.848,M,0.000,M,,*6C
$GNGGA,083717.400,3117.0455945,N,12109.6340294,E,0,00,,11.848,M,0.000,M,,*6A
$GNGGA,083717.600,3117.0455945,N,12109.6340294,E,0,00,,11.848,M,0.000,M,,*68
$GNGGA,083717.800,3117.0455945,N,12109.6340294,E,0,00,,11.848,M,0.000,M,,*66
$GNGGA,083718.000,3117.0455945,N,12109.6340294,E,0,00,,11.848,M,0.000,M,,*61
$GNGGA,083718.200,3117.0455945,N,12109.6340294,E,0,00,,11.848,M,0.000,M,,*63
$GNGGA,083718.400,3117.0455945,N,12109.6340294,E,0,00,,11.848,M,0.000,M,,*65
$GNGGA,083718.600,3117.0455945,N,12109.6340294,E,0,00,,11.848,M,0.000,M,,*67
$GNGGA,083718.800,3117.0455945,N,12109.6340294,E,0,00,,11.848,M,0.000,M,,*69
$GNGGA,083719.000,3117.0455945,N,12109.6340294,E,0,00,,11.848,M,0.000,M,,*60
$GNGGA,083719.200,3117.0455945,N,12109.6340294,E,0,00,,11.848,M,0.000,M,,*62
$GNGGA,083719.400,3117.0455945,N,12109.6340294,E,0,00,,11.848,M,0.000,M,,*64
$GNGGA,083719.600,3117.0455945,N,12109.6340294,E,0,00,,11.848,M,0.000,M,,*66
$GNGGA,083719.800,3117.0455945,N,12109.6340294,E,0,00,,11.848,M,0.000,M,,*68
$GNGGA,083720.000,3117.0455945,N,12109.6340294,E,0,00,,11.848,M,0.000,M,,*6A
$GNGGA,083720.200,3117.0455945,N,12109.6340294,E,0,00,,11.848,M,0.000,M,,*68
$GNGGA,083720.400,3117.0455945,N,12109.6340294,E,0,00,,11.848,M,0.000,M,,*6E
$GNGGA,083720.600,3117.0455945,N,12109.6340294,E,0,00,,11.848,M,0.000,M,,*6C
$GNGGA,083720.800,3117.0455945,N,12109.6340294,E,0,00,,11.848,M,0.000,M,,*62
$GNGGA,083721.000,3117.0455945,N,12109.6340294,E,0,00,,11.848,M,0.000,M,,*6B
$GNGGA,083721.200,3117.0455945,N,12109.6340294,E,0,00,,11.848,M,0.000,M,,*69
$GNGGA,083721.400,3117.0455945,N,12109.6340294,E,0,00,,11.848,M,0.000,M,,*6F
$GNGGA,083721.600,3117.0455945,N,12109.6340294,E,0,00,,11.848,M,0.000,M,,*6D
$GNGGA,083721.800,3117.0455945,N,12109.6340294,E,0,00,,11.848,M,0.000,M,,*63
$GNGGA,083722.000,3117.0455945,N,12109.6340294,E,0,00,,11.848,M,0.000,M,,*68
$GNGGA,083722.200,3117.0455945,N,12109.6340294,E,0,00,,11.848,M,0.000,M,,*6A
$GNGGA,083722.400,3117.0455945,N,12109.6340294,E,0,00,,11.848,M,0.000,M,,*6C
$GNGGA,083722.600,3117.0455945,N,12109.6340294,E,0,00,,11.848,M,0.000,M,,*6E
$GNGGA,083722.800,3117.0455945,N,12109.6340294,E,0,00,,11.848,M,0.000,M,,*60
$GNGGA,083723.000,3117.0455945,N,12109.6340294,E,0,00,,11.848,M,0.000,M,,*69
$GNGGA,083723.200,3117.0455945,N,12109.6340294,E,0,00,,11.848,M,0.000,M,,*6B
$GNGGA,083723.400,3117.0455945,N,12109.6340294,E,0,00,,11.848,M,0.000,M,,*6D
$GNGGA,083723.600,3117.0455945,N,12109.6340294,E,0,00,,11.848,M,0.000,M,,*6F
$GNGGA,083723.800,3117.0455945,N,12109.6340294,E,0,00,,11.848,M,0.000,M,,*61
$GNGGA,083724.000,3117.0455945,N,12109.6340294,E,0,00,,11.848,M,0.000,M,,*6E
$GNGGA,083724.200,3117.0455945,N,12109.6340294,E,0,00,,11.848,M,0.000,M,,*6C
$GNGGA,083724.400,3117.0455945,N,12109.6340294,E,0,00,,11.848,M,0.000,M,,*6A
$GNGGA,083724.600,3117.0455945,N,12109.6340294,E,0,00,,11.848,M,0.000,M,,*68
$GNGGA,083724.800,3117.0455945,N,12109.6340294,E,0,00,,11.848,M,0.000,M,,*66
$GNGGA,083725.000,3117.0455945,N,12109.6340294,E,0,00,,11.848,M,0.000,M,,*6F
$GNGGA,083725.200,3117.0455945,N,12109.6340294,E,0,00,,11.848,M,0.000,M,,*6D
$GNGGA,083725.400,3117.0455945,N,12109.6340294,E,0,00,,11.848,M,0.000,M,,*6B
$GNGGA,083725.600,3117.0455945,N,12109.6340294,E,0,00,,11.848,M,0.000,M,,*69
$GNGGA,083725.800,3117.0455945,N,12109.6340294,E,0,00,,11.848,M,0.000,M,,*67
$GNGGA,083726.000,3117.0455945,N,12109.6340294,E,0,00,,11.848,M,0.000,M,,*6C
$GNGGA,083726.200,3117.0455945,N,12109.6340294,E,0,00,,11.848,M,0.000,M,,*6E
$GNGGA,083726.400,3117.0455945,N,12109.6340294,E,0,00,,11.848,M,0.000,M,,*68
$GNGGA,083726.600,3117.0455945,N,12109.6340294,E,0,00,,11.848,M,0.000,M,,*6A
$GNGGA,083726.800,3117.0455945,N,12109.6340294,E,0,00,,11.848,M,0.000,M,,*64
$GNGGA,083727.000,3117.0455945,N,12109.6340294,E,0,00,,11.848,M,0.000,M,,*6D
$GNGGA,083727.200,3117.0455945,N,12109.6340294,E,0,00,,11.848,M,0.000,M,,*6F
$GNGGA,083727.400,3117.0455945,N,12109.6340294,E,0,00,,11.848,M,0.000,M,,*69
$GNGGA,083727.600,3117.0455945,N,12109.6340294,E,0,00,,11.848,M,0.000,M,,*6B
$GNGGA,083727.800,3117.0455945,N,12109.6340294,E,0,00,,11.848,M,0.000,M,,*65
$GNGGA,083728.000,3117.0455945,N,12109.6340294,E,0,00,,11.848,M,0.000,M,,*62
$GNGGA,083728.200,3117.0455945,N,12109.6340294,E,0,00,,11.848,M,0.000,M,,*60
$GNGGA,083728.400,3117.0455945,N,12109.6340294,E,0,00,,11.848,M,0.000,M,,*66
$GNGGA,083728.600,3117.0455945,N,12109.6340294,E,0,00,,11.848,M,0.000,M,,*64
$GNGGA,083728.800,3117.0455945,N,12109.6340294,E,0,00,,11.848,M,0.000,M,,*6A
$GNGGA,083729.000,3117.0455945,N,12109.6340294,E,0,00,,11.848,M,0.000,M,,*63
$GNGGA,083729.200,3117.0455945,N,12109.6340294,E,0,00,,11.848,M,0.000,M,,*61
$GNGGA,083729.400,3117.0455945,N,12109.6340294,E,0,00,,11.848,M,0.000,M,,*67
$GNGGA,083729.600,3117.0455945,N,12109.6340294,E,0,00,,11.848,M,0.000,M,,*65
$GNGGA,083729.800,3117.0455945,N,12109.6340294,E,0,00,,11.848,M,0.000,M,,*6B
$GNGGA,083730.000,3117.0455945,N,12109.6340294,E,0,00,,11.848,M,0.000,M,,*6B
$GNGGA,083730.200,3117.0455945,N,12109.6340294,E,0,00,,11.848,M,0.000,M,,*69
$GNGGA,083730.400,3117.0455945,N,12109.6340294,E,0,00,,11.848,M,0.000,M,,*6F
$GNGGA,083730.600,3117.0455945,N,12109.6340294,E,0,00,,11.848,M,0.000,M,,*6D
$GNGGA,083730.800,3117.0455945,N,12109.6340294,E,0,00,,11.848,M,0.000,M,,*63
$GNGGA,083731.000,3117.0455945,N,12109.6340294,E,0,00,,11.848,M,0.000,M,,*6A
$GNGGA,083731.200,3117.0455945,N,12109.6340294,E,0,00,,11.848,M,0.000,M,,*68
$GNGGA,083731.400,3117.0455945,N,12109.6340294,E,0,00,,11.848,M,0.000,M,,*6E
$GNGGA,083731.600,3117.0455945,N,12109.6340294,E,0,00,,11.848,M,0.000,M,,*6C
$GNGGA,083731.800,3117.0455945,N,12109.6340294,E,0,00,,11.848,M,0.000,M,,*62
$GNGGA,083732.000,3117.0455945,N,12109.6340294,E,0,00,,11.848,M,0.000,M,,*69
$GNGGA,083732.200,3117.0455945,N,12109.6340294,E,0,00,,11.848,M,0.000,M,,*6B
$GNGGA,083732.400,3117.0455945,N,12109.6340294,E,0,00,,11.848,M,0.000,M,,*6D
$GNGGA,083732.600,3117.0455945,N,12109.6340294,E,0,00,,11.848,M,0.000,M,,*6F
$GNGGA,083732.800,3117.0455945,N,12109.6340294,E,0,00,,11.848,M,0.000,M,,*61
$GNGGA,083733.000,3117.0455945,N,12109.6340294,E,0,00,,11.848,M,0.000,M,,*68
$GNGGA,083733.200,3117.0455945,N,12109.6340294,E,0,00,,11.848,M,0.000,M,,*6A
$GNGGA,083733.400,3117.0455945,N,12109.6340294,E,0,00,,11.848,M,0.000,M,,*6C
$GNGGA,083733.600,3117.0455945,N,12109.6340294,E,0,00,,11.848,M,0.000,M,,*6E
$GNGGA,083733.800,3117.0455945,N,12109.6340294,E,0,00,,11.848,M,0.000,M,,*60
$GNGGA,083734.000,3117.0455945,N,12109.6340294,E,0,00,,11.848,M,0.000,M,,*6F
$GNGGA,083734.200,3117.0455945,N,12109.6340294,E,0,00,,11.848,M,0.000,M,,*6D
$GNGGA,083734.400,3117.0455945,N,12109.6340294,E,0,00,,11.848,M,0.000,M,,*6B
$GNGGA,083734.600,3117.0455945,N,12109.6340294,E,0,00,,11.848,M,0.000,M,,*69
$GNGGA,083734.800,3117.0455945,N,12109.6340294,E,0,00,,11.848,M,0.000,M,,*67
$GNGGA,083735.000,3117.0455945,N,12109.6340294,E,0,00,,11.848,M,0.000,M,,*6E
$GNGGA,083735.200,3117.0455945,N,12109.6340294,E,0,00,,11.848,M,0.000,M,,*6C
$GNGGA,083735.400,3117.0455945,N,12109.6340294,E,0,00,,11.848,M,0.000,M,,*6A
$GNGGA,083735.600,3117.0455945,N,12109.6340294,E,0,00,,11.848,M,0.000,M,,*68
$GNGGA,083735.800,3117.0455945,N,12109.6340294,E,0,00,,11.848,M,0.000,M,,*66
$GNGGA,083736.000,3117.0455945,N,12109.6340294,E,0,00,,11.848,M,0.000,M,,*6D
$GNGGA,083736.200,3117.0455945,N,12109.6340294,E,0,00,,11.848,M,0.000,M,,*6F
$GNGGA,083736.400,3117.0455945,N,12109.6340294,E,0,00,,11.848,M,0.000,M,,*69
$GNGGA,083736.600,3117.0455945,N,12109.6340294,E,0,00,,11.848,M,0.000,M,,*6B
$GNGGA,083736.800,3117.0455945,N,12109.6340294,E,0,00,,11.848,M,0.000,M,,*65
$GNGGA,083737.000,3117.0455945,N,12109.6340294,E,0,00,,11.848,M,0.000,M,,*6C
$GNGGA,083737.200,3117.0455945,N,12109.6340294,E,0,00,,11.848,M,0.000,M,,*6E
$GNGGA,083737.400,3117.0455945,N,12109.6340294,E,0,00,,11.848,M,0.000,M,,*68
$GNGGA,083737.600,3117.0455945,N,12109.6340294,E,0,00,,11.848,M,0.000,M,,*6A
$GNGGA,083737.800,3117.0455945,N,12109.6340294,E,0,00,,11.848,M,0.000,M,,*64
$GNGGA,083738.000,3117.0455945,N,12109.6340294,E,0,00,,11.848,M,0.000,M,,*63
$GNGGA,083738.200,3117.0455945,N,12109.6340294,E,0,00,,11.848,M,0.000,M,,*61
$GNGGA,083738.400,3117.0455945,N,12109.6340294,E,0,00,,11.848,M,0.000,M,,*67
$GNGGA,083738.600,3117.0455945,N,12109.6340294,E,0,00,,11.848,M,0.000,M,,*65
$GNGGA,083738.800,3117.0455945,N,12109.6340294,E,0,00,,11.848,M,0.000,M,,*6B
$GNGGA,083739.000,3117.0455945,N,12109.6340294,E,0,00,,11.848,M,0.000,M,,*62
$GNGGA,083739.200,3117.0455945,N,12109.6340294,E,0,00,,11.848,M,0.000,M,,*60
$GNGGA,083739.400,3117.0455945,N,12109.6340294,E,0,00,,11.848,M,0.000,M,,*66
$GNGGA,083739.600,3117.0455945,N,12109.6340294,E,0,00,,11.848,M,0.000,M,,*64
$GNGGA,083739.800,3117.0455945,N,12109.6340294,E,0,00,,11.848,M,0.000,M,,*6A
$GNGGA,083740.000,3117.0455945,N,12109.6340294,E,0,00,,11.848,M,0.000,M,,*6C
$GNGGA,083740.200,3117.0455945,N,12109.6340294,E,0,00,,11.848,M,0.000,M,,*6E
$GNGGA,083740.400,3117.0455945,N,12109.6340294,E,0,00,,11.848,M,0.000,M,,*68
,12109.6648445,E,4,23,0.66,5.506,M,9.011,M,1.0,0010*60
$GNGGA,081459.000,3117.0580460,N,12109.6656498,E,4,23,0.66,5.525,M,9.011,M,1.0,0010*61
$GNGGA,081459.200,3117.0582533,N,12109.6664846,E,4,23,0.66,5.499,M,9.011,M,1.0,0010*6E
$GNGGA,081459.400,3117.0584522,N,12109.6673554,E,4,23,0.66,5.471,M,9.011,M,1.0,0010*60
$GNGGA,081459.600,3117.0586433,N,12109.6682504,E,4,23,0.66,5.462,M,9.011,M,1.0,0010*68
$GNGGA,081459.800,3117.0588470,N,12109.6691534,E,4,23,0.66,5.425,M,9.011,M,1.0,0010*6D
$GNGGA,081500.000,3117.0590765,N,12109.6700751,E,4,23,0.66,5.401,M,9.011,M,1.0,0010*68
$GNGGA,081500.200,3117.0593114,N,12109.6710253,E,4,23,0.66,5.345,M,9.011,M,1.0,0010*68
$GNGGA,081500.400,3117.0595393,N,12109.6719886,E,4,23,0.66,5.323,M,9.011,M,1.0,0010*6E
$GNGGA,081500.600,3117.0597885,N,12109.6729706,E,4,23,0.66,5.287,M,9.011,M,1.0,0010*69
$GNGGA,081500.800,3117.0600443,N,12109.6739620,E,4,23,0.66,5.264,M,9.011,M,1.0,0010*65
$GNGGA,081501.000,3117.0603065,N,12109.6749586,E,4,23,0.66,5.179,M,9.011,M,1.0,0010*68
$GNGGA,081501.200,3117.0605880,N,12109.6759856,E,4,23,0.66,5.187,M,9.011,M,1.0,0010*6F
$GNGGA,081501.400,3117.0608732,N,12109.6770219,E,4,23,0.66,5.209,M,9.011,M,1.0,0010*6D
$GNGGA,081501.600,3117.0611468,N,12109.6780722,E,4,23,0.66,5.209,M,9.011,M,1.0,0010*69
$GNGGA,081501.800,3117.0614270,N,12109.6791185,E,4,23,0.66,5.202,M,9.011,M,1.0,0010*6D
$GNGGA,081502.000,3117.0616979,N,12109.6801700,E,4,23,0.66,5.255,M,9.011,M,1.0,0010*69
$GNGGA,081502.200,3117.0619710,N,12109.6812250,E,4,23,0.66,5.270,M,9.011,M,1.0,0010*60
$GNGGA,081502.400,3117.0622474,N,12109.6822831,E,4,23,0.66,5.302,M,9.011,M,1.0,0010*65
$GNGGA,081502.600,3117.0625251,N,12109.6833460,E,4,23,0.66,5.325,M,9.011,M,1.0,0010*6C
$GNGGA,081502.800,3117.0627993,N,12109.6844285,E,4,23,0.66,5.286,M,9.012,M,1.0,0010*63
$GNGGA,081503.000,3117.0630795,N,12109.6855140,E,4,23,0.66,5.287,M,9.012,M,1.0,0010*6F
$GNGGA,081503.200,3117.0633521,N,12109.6866118,E,4,23,0.66,5.262,M,9.012,M,1.0,0010*65
$GNGGA,081503.400,3117.0636278,N,12109.6877271,E,4,23,0.66,5.268,M,9.012,M,1.0,0010*6B
$GNGGA,081503.600,3117.0639023,N,12109.6888470,E,4,23,0.66,5.258,M,9.012,M,1.0,0010*6E
$GNGGA,081503.800,3117.0641872,N,12109.6899786,E,4,23,0.66,5.248,M,9.012,M,1.0,0010*68
$GNGGA,081504.000,3117.0644620,N,12109.6911372,E,4,23,0.66,5.259,M,9.012,M,1.0,0010*65
$GNGGA,081504.200,3117.0647398,N,12109.6923011,E,4,23,0.66,5.266,M,9.012,M,1.0,0010*69
$GNGGA,081504.400,3117.0650196,N,12109.6934775,E,4,23,0.66,5.233,M,9.012,M,1.0,0010*66
$GNGGA,081504.600,3117.0653005,N,12109.6946477,E,4,23,0.66,5.212,M,9.012,M,1.0,0010*6B
$GNGGA,081504.800,3117.0655779,N,12109.6958362,E,4,23,0.66,5.213,M,9.012,M,1.0,0010*62
$GNGGA,081505.000,3117.0658710,N,12109.6970308,E,4,23,0.66,5.237,M,9.012,M,1.0,0010*69
$GNGGA,081505.200,3117.0661575,N,12109.6982297,E,4,22,0.67,5.238,M,9.012,M,1.0,0010*65
$GNGGA,081505.400,3117.0664440,N,12109.6994433,E,4,23,0.66,5.232,M,9.012,M,1.0,0010*64
$GNGGA,081505.600,3117.0667377,N,12109.7006625,E,4,23,0.66,5.260,M,9.012,M,1.0,0010*67
$GNGGA,081505.800,3117.0670214,N,12109.7018925,E,4,23,0.66,5.265,M,9.012,M,1.0,0010*6E
$GNGGA,081506.000,3117.0673094,N,12109.7031188,E,4,23,0.66,5.233,M,9.012,M,1.0,0010*6B
$GNGGA,081506.200,3117.0675944,N,12109.7043585,E,4,23,0.66,5.216,M,9.012,M,1.0,0010*60
$GNGGA,081506.400,3117.0678856,N,12109.7056046,E,4,24,0.64,5.215,M,9.012,M,1.0,0010*61
$GNGGA,081506.600,3117.0681677,N,12109.7068666,E,4,24,0.64,5.221,M,9.012,M,1.0,0010*66
$GNGGA,081506.800,3117.0684605,N,12109.7081243,E,4,24,0.64,5.250,M,9.012,M,1.0,0010*6A
$GNGGA,081507.000,3117.0687545,N,12109.7093990,E,4,24,0.64,5.241,M,9.012,M,1.0,0010*61
$GNGGA,081507.200,3117.0690425,N,12109.7106733,E,4,24,0.64,5.214,M,9.012,M,1.0,0010*68
$GNGGA,081507.400,3117.0693326,N,12109.7119620,E,4,24,0.64,5.244,M,9.012,M,1.0,0010*61
$GNGGA,081507.600,3117.0696185,N,12109.7132476,E,4,24,0.64,5.220,M,9.013,M,1.0,0010*66
$GNGGA,081507.800,3117.0699213,N,12109.7145426,E,4,24,0.64,5.197,M,9.013,M,1.0,0010*61
$GNGGA,081508.000,3117.0702198,N,12109.7158399,E,4,24,0.64,5.174,M,9.013,M,1.0,0010*67
$GNGGA,081508.200,3117.0705128,N,12109.7171436,E,4,24,0.64,5.160,M,9.013,M,1.0,0010*65
$GNGGA,081508.400,3117.0708083,N,12109.7184581,E,4,24,0.64,5.178,M,9.013,M,1.0,0010*60
$GNGGA,081508.600,3117.0711104,N,12109.7197723,E,4,24,0.64,5.161,M,9.013,M,1.0,0010*64
$GNGGA,081508.800,3117.0714122,N,12109.7210882,E,4,24,0.64,5.160,M,9.013,M,1.0,0010*62
$GNGGA,081509.000,3117.0717149,N,12109.7224087,E,4,24,0.64,5.141,M,9.013,M,1.0,0010*6C
$GNGGA,081509.200,3117.0720306,N,12109.7237289,E,4,24,0.64,5.130,M,9.013,M,1.0,0010*6B
$GNGGA,081509.400,3117.0723364,N,12109.7250653,E,4,24,0.64,5.155,M,9.013,M,1.0,0010*6B
$GNGGA,081509.600,3117.0726426,N,12109.7264003,E,4,24,0.64,5.129,M,9.013,M,1.0,0010*62
$GNGGA,081509.800,3117.0729533,N,12109.7277390,E,4,24,0.64,5.077,M,9.013,M,1.0,0010*67
$GNGGA,081510.000,3117.0732637,N,12109.7290830,E,4,24,0.64,5.064,M,9.013,M,1.0,0010*60
$GNGGA,081510.200,3117.0735814,N,12109.7304360,E,4,24,0.64,5.097,M,9.013,M,1.0,0010*64
$GNGGA,081510.400,3117.0739010,N,12109.7317893,E,4,24,0.64,5.105,M,9.013,M,1.0,0010*6D
$GNGGA,081510.600,3117.0742164,N,12109.7331523,E,4,24,0.64,5.113,M,9.013,M,1.0,0010*64
$GNGGA,081510.800,3117.0745254,N,12109.7345158,E,4,24,0.64,5.121,M,9.013,M,1.0,0010*67
$GNGGA,081511.000,3117.0748475,N,12109.7358813,E,4,24,0.64,5.152,M,9.013,M,1.0,0010*68
$GNGGA,081511.200,3117.0751699,N,12109.7372551,E,4,24,0.64,5.146,M,9.013,M,1.0,0010*64
$GNGGA,081511.400,3117.0754838,N,12109.7386298,E,4,24,0.64,5.153,M,9.013,M,1.0,0010*6F
$GNGGA,081511.600,3117.0757972,N,12109.7400058,E,4,24,0.64,5.103,M,9.013,M,1.0,0010*63
$GNGGA,081511.800,3117.0761132,N,12109.7413921,E,4,24,0.64,5.095,M,9.013,M,1.0,0010*6F
$GNGGA,081512.000,3117.0764330,N,12109.7427759,E,4,24,0.64,5.115,M,9.014,M,1.0,0010*69
$GNGGA,081512.200,3117.0767430,N,12109.7441690,E,4,24,0.64,5.087,M,9.014,M,1.0,0010*61
$GNGGA,081512.400,3117.0770556,N,12109.7455594,E,4,24,0.64,5.063,M,9.014,M,1.0,0010*68
$GNGGA,081512.600,3117.0773604,N,12109.7469630,E,4,24,0.64,5.030,M,9.014,M,1.0,0010*69
$GNGGA,081512.800,3117.0776674,N,12109.7483746,E,4,24,0.64,5.057,M,9.014,M,1.0,0010*60
$GNGGA,081513.000,3117.0779774,N,12109.7497755,E,4,24,0.64,5.075,M,9.014,M,1.0,0010*60
$GNGGA,081513.200,3117.0782869,N,12109.7511744,E,4,24,0.64,5.089,M,9.014,M,1.0,0010*69
$GNGGA,081513.400,3117.0785969,N,12109.7525714,E,4,24,0.64,5.099,M,9.014,M,1.0,0010*6A
$GNGGA,081513.600,3117.0789127,N,12109.7539638,E,4,24,0.64,5.088,M,9.014,M,1.0,0010*64
$GNGGA,081513.800,3117.0792295,N,12109.7553616,E,4,24,0.64,5.050,M,9.014,M,1.0,0010*6F
$GNGGA,081514.000,3117.0795472,N,12109.7567490,E,4,24,0.64,5.013,M,9.014,M,1.0,0010*64
$GNGGA,081514.200,3117.0798661,N,12109.7581261,E,4,24,0.64,5.065,M,9.014,M,1.0,0010*6A
$GNGGA,081514.400,3117.0801793,N,12109.7595055,E,4,24,0.64,5.040,M,9.014,M,1.0,0010*68
$GNGGA,081514.600,3117.0805048,N,12109.7608818,E,4,24,0.64,5.025,M,9.014,M,1.0,0010*6A
$GNGGA,081514.800,3117.0808198,N,12109.7622627,E,4,24,0.64,5.050,M,9.014,M,1.0,0010*6D
$GNGGA,081515.000,3117.0811336,N,12109.7636484,E,4,24,0.64,5.096,M,9.014,M,1.0,0010*6E
$GNGGA,081515.200,3117.0814492,N,12109.7650333,E,4,24,0.64,5.087,M,9.014,M,1.0,0010*6B
$GNGGA,081515.400,3117.0817609,N,12109.7664083,E,4,24,0.64,5.103,M,9.014,M,1.0,0010*6C
$GNGGA,081515.600,3117.0820803,N,12109.7677904,E,4,24,0.64,5.097,M,9.014,M,1.0,0010*66
$GNGGA,081515.800,3117.0823964,N,12109.7691782,E,4,24,0.64,5.116,M,9.014,M,1.0,0010*6B
$GNGGA,081516.000,3117.0827090,N,12109.7705647,E,4,24,0.64,5.160,M,9.014,M,1.0,0010*63
$GNGGA,081516.200,3117.0830270,N,12109.7719480,E,4,24,0.64,5.160,M,9.015,M,1.0,0010*6E
$GNGGA,081516.400,3117.0833407,N,12109.7733340,E,4,24,0.64,5.191,M,9.015,M,1.0,0010*60
$GNGGA,081516.600,3117.0836577,N,12109.7747131,E,4,24,0.64,5.146,M,9.015,M,1.0,0010*6C
$GNGGA,081516.800,3117.0839728,N,12109.7760944,E,4,24,0.64,5.132,M,9.015,M,1.0,0010*69
$GNGGA,081517.000,3117.0842879,N,12109.7774732,E,4,24,0.64,5.119,M,9.015,M,1.0,0010*64
$GNGGA,081517.200,3117.0846019,N,12109.7788617,E,4,24,0.64,5.090,M,9.015,M,1.0,0010*69
$GNGGA,081517.400,3117.0849109,N,12109.7802507,E,4,24,0.64,5.083,M,9.015,M,1.0,0010*6D
$GNGGA,081517.600,3117.0852197,N,12109.7816498,E,4,24,0.64,5.075,M,9.015,M,1.0,0010*69
$GNGGA,081517.800,3117.0855306,N,12109.7830424,E,4,24,0.64,5.066,M,9.015,M,1.0,0010*6B
$GNGGA,081518.000,3117.0858444,N,12109.7844372,E,4,24,0.64,5.076,M,9.015,M,1.0,0010*66
$GNGGA,081518.200,3117.0861510,N,12109.7858367,E,4,24,0.64,5.049,M,9.015,M,1.0,0010*6B
$GNGGA,081518.400,3117.0864584,N,12109.7872371,E,4,24,0.64,5.029,M,9.015,M,1.0,0010*6C
$GNGGA,081518.600,3117.0867670,N,12109.7886480,E,4,24,0.64,5.032,M,9.015,M,1.0,0010*6D
$GNGGA,081518.800,3117.0870748,N,12109.7900629,E,4,24,0.64,5.065,M,9.015,M,1.0,0010*63
$GNGGA,081519.000,3117.0873838,N,12109.7914804,E,4,24,0.64,5.069,M,9.015,M,1.0,0010*69
$GNGGA,081519.200,3117.0876989,N,12109.7929033,E,4,24,0.64,5.079,M,9.015,M,1.0,0010*66
$GNGGA,081519.400,3117.0880174,N,12109.7943318,E,4,24,0.64,5.090,M,9.015,M,1.0,0010*62
$GNGGA,081519.600,3117.0883407,N,12109.7957641,E,4,24,0.64,5.080,M,9.015,M,1.0,0010*6F
$GNGGA,081519.800,3117.0886704,N,12109.7972015,E,4,24,0.64,5.078,M,9.015,M,1.0,0010*63
$GNGGA,081520.000,3117.0889989,N,12109.7986387,E,4,24,0.64,5.072,M,9.015,M,1.0,0010*6C
$GNGGA,081520.200,3117.0893319,N,12109.8000907,E,4,24,0.64,5.059,M,9.016,M,1.0,0010*66
$GNGGA,081520.400,3117.0896711,N,12109.8015482,E,4,24,0.64,5.075,M,9.016,M,1.0,0010*63
$GNGGA,081520.600,3117.0900094,N,12109.8030225,E,4,24,0.64,5.082,M,9.016,M,1.0,0010*61
$GNGGA,081520.800,3117.0903480,N,12109.8044909,E,4,24,0.64,5.078,M,9.016,M,1.0,0010*6E
$GNGGA,081521.000,3117.0906880,N,12109.8059668,E,4,24,0.64,5.058,M,9.016,M,1.0,0010*68
$GNGGA,081521.200,3117.0910242,N,12109.8074531,E,4,23,0.66,5.034,M,9.016,M,1.0,0010*66
$GNGGA,081521.400,3117.0913625,N,12109.8089483,E,4,23,0.66,5.033,M,9.016,M,1.0,0010*6B
$GNGGA,081521.600,3117.0916962,N,12109.8104459,E,4,23,0.66,5.043,M,9.016,M,1.0,0010*64
$GNGGA,081521.800,3117.0920363,N,12109.8119533,E,4,24,0.64,5.060,M,9.016,M,1.0,0010*61
$GNGGA,081522.000,3117.0923784,N,12109.8134645,E,4,24,0.64,5.057,M,9.016,M,1.0,0010*6D
$GNGGA,081522.200,3117.0927209,N,12109.8149807,E,4,24,0.64,5.059,M,9.016,M,1.0,0010*67
$GNGGA,081522.400,3117.0930577,N,12109.8165065,E,4,24,0.64,5.042,M,9.016,M,1.0,0010*61
$GNGGA,081522.600,3117.0933961,N,12109.8180258,E,4,24,0.64,5.015,M,9.016,M,1.0,0010*6E
$GNGGA,081522.800,3117.0937448,N,12109.8195500,E,4,24,0.64,5.029,M,9.016,M,1.0,0010*63
$GNGGA,081523.000,3117.0940909,N,12109.8210801,E,4,24,0.64,5.044,M,9.016,M,1.0,0010*6B
$GNGGA,081523.200,3117.0944409,N,12109.8226214,E,4,24,0.64,5.033,M,9.016,M,1.0,0010*6B
$GNGGA,081523.400,3117.0947860,N,12109.8241652,E,4,24,0.64,5.033,M,9.016,M,1.0,0010*6A
$GNGGA,081523.600,3117.0951341,N,12109.8257205,E,4,24,0.64,5.048,M,9.016,M,1.0,0010*6A
$GNGGA,081523.800,3117.0954912,N,12109.8272774,E,4,24,0.64,5.040,M,9.016,M,1.0,0010*61
$GNGGA,081524.000,3117.0958424,N,12109.8288371,E,4,24,0.64,5.044,M,9.017,M,1.0,0010*6B
$GNGGA,081524.200,3117.0962008,N,12109.8304154,E,4,24,0.64,5.050,M,9.017,M,1.0,0010*6F
$GNGGA,081524.400,3117.0965565,N,12109.8320008,E,4,24,0.64,5.031,M,9.017,M,1.0,0010*69
$GNGGA,081524.600,3117.0969100,N,12109.8335878,E,4,24,0.64,5.061,M,9.017,M,1.0,0010*6E
$GNGGA,081524.800,3117.0972710,N,12109.8351835,E,4,24,0.64,5.071,M,9.017,M,1.0,0010*67
$GNGGA,081525.000,3117.0976286,N,12109.8367866,E,4,24,0.64,5.109,M,9.017,M,1.0,0010*6D
$GNGGA,081525.200,3117.0979929,N,12109.8384018,E,4,24,0.64,5.096,M,9.017,M,1.0,0010*65
$GNGGA,081525.400,3117.0983566,N,12109.8400185,E,4,24,0.64,5.131,M,9.017,M,1.0,0010*63
$GNGGA,081525.600,3117.0987244,N,12109.8416471,E,4,24,0.64,5.140,M,9.017,M,1.0,0010*6D
$GNGGA,081525.800,3117.0990919,N,12109.8432738,E,4,24,0.64,5.129,M,9.017,M,1.0,0010*61
$GNGGA,081526.000,3117.0994651,N,12109.8449051,E,4,24,0.64,5.080,M,9.017,M,1.0,0010*6B
$GNGGA,081526.200,3117.0998334,N,12109.8465473,E,4,24,0.64,5.065,M,9.017,M,1.0,0010*62
$GNGGA,081526.400,3117.1002007,N,12109.8481967,E,4,24,0.64,5.027,M,9.017,M,1.0,0010*68
$GNGGA,081526.600,3117.1005741,N,12109.8498580,E,4,24,0.64,5.049,M,9.017,M,1.0,0010*6D
$GNGGA,081526.800,3117.1009509,N,12109.8515194,E,4,24,0.64,5.072,M,9.017,M,1.0,0010*6C
$GNGGA,081527.000,3117.1013286,N,12109.8532028,E,4,24,0.64,5.091,M,9.017,M,1.0,0010*60
$GNGGA,081527.200,3117.1017078,N,12109.8548823,E,4,24,0.64,5.102,M,9.017,M,1.0,0010*60
$GNGGA,081527.400,3117.1020935,N,12109.8565661,E,4,24,0.64,5.128,M,9.017,M,1.0,0010*6D
$GNGGA,081527.600,3117.1024808,N,12109.8582601,E,4,24,0.64,5.125,M,9.018,M,1.0,0010*69
$GNGGA,081527.800,3117.1028615,N,12109.8599602,E,4,24,0.64,5.105,M,9.018,M,1.0,0010*62
$GNGGA,081528.000,3117.1032465,N,12109.8616614,E,4,24,0.64,5.083,M,9.018,M,1.0,0010*67
$GNGGA,081528.200,3117.1036353,N,12109.8633642,E,4,24,0.64,5.067,M,9.018,M,1.0,0010*6D
$GNGGA,081528.400,3117.1040166,N,12109.8650782,E,4,24,0.64,5.103,M,9.018,M,1.0,0010*65
$GNGGA,081528.600,3117.1043946,N,12109.8667975,E,4,24,0.64,5.132,M,9.018,M,1.0,0010*6E
$GNGGA,081528.800,3117.1047745,N,12109.8685285,E,4,24,0.64,5.119,M,9.018,M,1.0,0010*68
$GNGGA,081529.000,3117.1051588,N,12109.8702536,E,4,24,0.64,5.128,M,9.018,M,1.0,0010*66
$GNGGA,081529.200,3117.1055403,N,12109.8719892,E,4,24,0.64,5.126,M,9.018,M,1.0,0010*65
$GNGGA,081529.400,3117.1059235,N,12109.8737294,E,4,24,0.64,5.165,M,9.018,M,1.0,0010*6B
$GNGGA,081529.600,3117.1063007,N,12109.8754696,E,4,24,0.64,5.221,M,9.018,M,1.0,0010*63
$GNGGA,081529.800,3117.1066839,N,12109.8772142,E,4,24,0.64,5.260,M,9.018,M,1.0,0010*62
$GNGGA,081530.000,3117.1070669,N,12109.8789619,E,4,24,0.64,5.280,M,9.018,M,1.0,0010*6D
$GNGGA,081530.200,3117.1074538,N,12109.8807116,E,4,24,0.64,5.287,M,9.018,M,1.0,0010*6A
$GNGGA,081530.400,3117.1078398,N,12109.8824596,E,4,24,0.64,5.325,M,9.018,M,1.0,0010*68
$GNGGA,081530.600,3117.1082286,N,12109.8842145,E,4,24,0.64,5.306,M,9.018,M,1.0,0010*6A
$GNGGA,081530.800,3117.1086264,N,12109.8859682,E,4,24,0.64,5.314,M,9.018,M,1.0,0010*69
$GNGGA,081531.000,3117.1090090,N,12109.8877240,E,4,25,0.61,5.305,M,9.019,M,1.0,0010*6D
$GNGGA,081531.200,3117.1094059,N,12109.8894772,E,4,25,0.61,5.337,M,9.019,M,1.0,0010*66
$GNGGA,081531.400,3117.1097997,N,12109.8912397,E,4,25,0.61,5.331,M,9.019,M,1.0,0010*6E
$GNGGA,081531.600,3117.1102070,N,12109.8930032,E,4,25,0.61,5.360,M,9.019,M,1.0,0010*69
$GNGGA,081531.800,3117.1106110,N,12109.8947627,E,4,25,0.61,5.392,M,9.019,M,1.0,0010*6B
$GNGGA,081532.000,3117.1110131,N,12109.8965278,E,4,25,0.61,5.394,M,9.019,M,1.0,0010*6C
$GNGGA,081532.200,3117.1114161,N,12109.8982928,E,4,25,0.61,5.413,M,9.019,M,1.0,0010*60
$GNGGA,081532.400,3117.1118313,N,12109.9000559,E,4,25,0.61,5.475,M,9.019,M,1.0,0010*65
$GNGGA,081532.600,3117.1122452,N,12109.9018198,E,4,25,0.61,5.499,M,9.019,M,1.0,0010*6E
$GNGGA,081532.800,3117.1126654,N,12109.9035800,E,4,25,0.61,5.553,M,9.019,M,1.0,0010*60
$GNGGA,081533.000,3117.1130929,N,12109.9053406,E,4,25,0.61,5.592,M,9.019,M,1.0,0010*6C
$GNGGA,081533.200,3117.1135353,N,12109.9070998,E,4,25,0.61,5.602,M,9.019,M,1.0,0010*6D
$GNGGA,081533.400,3117.1139603,N,12109.9088707,E,4,25,0.61,5.728,M,9.019,M,1.0,0010*61
$GNGGA,081533.600,3117.1144024,N,12109.9106289,E,4,25,0.61,5.762,M,9.019,M,1.0,0010*60
$GNGGA,081533.800,3117.1148468,N,12109.9123812,E,4,25,0.61,5.816,M,9.019,M,1.0,0010*6D
$GNGGA,081534.000,3117.1152843,N,12109.9141359,E,4,25,0.61,5.883,M,9.019,M,1.0,0010*60
$GNGGA,081534.200,3117.1157089,N,12109.9158865,E,4,25,0.61,5.971,M,9.020,M,1.0,0010*63
$GNGGA,081534.400,3117.1161150,N,12109.9176391,E,4,25,0.61,6.014,M,9.020,M,1.0,0010*60
$GNGGA,081534.600,3117.1165247,N,12109.9193925,E,4,25,0.61,6.017,M,9.020,M,1.0,0010*6E
$GNGGA,081534.800,3117.1169133,N,12109.9211452,E,4,25,0.61,6.089,M,9.020,M,1.0,0010*6F
$GNGGA,081535.000,3117.1173109,N,12109.9228997,E,4,25,0.61,6.123,M,9.020,M,1.0,0010*6B
$GNGGA,081535.200,3117.1176944,N,12109.9246505,E,4,25,0.61,6.180,M,9.020,M,1.0,0010*6B
$GNGGA,081535.400,3117.1180740,N,12109.9264046,E,4,25,0.61,6.239,M,9.020,M,1.0,0010*6D
$GNGGA,081535.600,3117.1184575,N,12109.9281603,E,4,25,0.61,6.315,M,9.020,M,1.0,0010*6C
$GNGGA,081535.800,3117.1188383,N,12109.9299179,E,4,25,0.61,6.373,M,9.020,M,1.0,0010*62
$GNGGA,081536.000,3117.1192110,N,12109.9316749,E,4,25,0.61,6.432,M,9.020,M,1.0,0010*6B
$GNGGA,081536.200,3117.1195858,N,12109.9334317,E,4,25,0.61,6.504,M,9.020,M,1.0,0010*60
$GNGGA,081536.400,3117.1199575,N,12109.9351894,E,4,25,0.61,6.543,M,9.020,M,1.0,0010*68
$GNGGA,081536.600,3117.1203334,N,12109.9369370,E,4,25,0.61,6.607,M,9.020,M,1.0,0010*60
$GNGGA,081536.800,3117.1207153,N,12109.9386740,E,4,25,0.61,6.760,M,9.020,M,1.0,0010*6F
$GNGGA,081537.000,3117.1210867,N,12109.9404112,E,4,25,0.61,6.931,M,9.020,M,1.0,0010*68
$GNGGA,081537.200,3117.1214544,N,12109.9421521,E,4,24,0.62,7.018,M,9.020,M,1.0,0010*60
$GNGGA,081537.400,3117.1218279,N,12109.9438873,E,4,24,0.62,6.985,M,9.021,M,1.0,0010*6C
$GNGGA,081537.600,3117.1222008,N,12109.9456184,E,4,24,0.62,7.021,M,9.021,M,1.0,0010*6C
$GNGGA,081537.800,3117.1225805,N,12109.9473500,E,4,24,0.62,7.034,M,9.021,M,1.0,0010*6B
$GNGGA,081538.000,3117.1229556,N,12109.9490843,E,4,24,0.62,7.049,M,9.021,M,1.0,0010*66
$GNGGA,081538.200,3117.1233314,N,12109.9508230,E,4,24,0.62,7.067,M,9.021,M,1.0,0010*6D
$GNGGA,081538.400,3117.1237158,N,12109.9525606,E,4,24,0.62,7.042,M,9.021,M,1.0,0010*6C
$GNGGA,081538.600,3117.1241025,N,12109.9543015,E,4,24,0.62,7.067,M,9.021,M,1.0,0010*67
$GNGGA,081538.800,3117.1244947,N,12109.9560469,E,4,24,0.62,7.060,M,9.021,M,1.0,0010*68
$GNGGA,081539.000,3117.1248891,N,12109.9577944,E,4,24,0.62,7.041,M,9.021,M,1.0,0010*60
$GNGGA,081539.200,3117.1252779,N,12109.9595463,E,4,24,0.62,7.046,M,9.021,M,1.0,0010*63
$GNGGA,081539.400,3117.1256695,N,12109.9612934,E,4,24,0.62,7.042,M,9.021,M,1.0,0010*65
$GNGGA,081539.600,3117.1260643,N,12109.9630391,E,4,24,0.62,7.008,M,9.021,M,1.0,0010*62
$GNGGA,081539.800,3117.1264575,N,12109.9647897,E,4,24,0.62,6.996,M,9.021,M,1.0,0010*6C
$GNGGA,081540.000,3117.1268557,N,12109.9665425,E,4,24,0.62,6.972,M,9.021,M,1.0,0010*69
$GNGGA,081540.200,3117.1272536,N,12109.9683122,E,4,24,0.62,6.820,M,9.021,M,1.0,0010*6B
$GNGGA,081540.400,3117.1276565,N,12109.9700801,E,4,24,0.62,6.560,M,9.021,M,1.0,0010*64
$GNGGA,081540.600,3117.1280538,N,12109.9718352,E,4,24,0.62,6.522,M,9.021,M,1.0,0010*65
$GNGGA,081540.800,3117.1284648,N,12109.9736152,E,4,24,0.62,6.472,M,9.022,M,1.0,0010*62
$GNGGA,081541.000,3117.1288610,N,12109.9754029,E,4,24,0.62,6.415,M,9.022,M,1.0,0010*62
$GNGGA,081541.200,3117.1292542,N,12109.9771705,E,4,24,0.62,6.368,M,9.022,M,1.0,0010*6C
$GNGGA,081541.400,3117.1296514,N,12109.9789519,E,4,24,0.62,6.296,M,9.022,M,1.0,0010*65
$GNGGA,081541.600,3117.1300445,N,12109.9807372,E,4,24,0.62,6.231,M,9.022,M,1.0,0010*63
$GNGGA,081541.800,3117.1304450,N,12109.9824992,E,4,24,0.62,6.190,M,9.022,M,1.0,0010*60
$GNGGA,081542.000,3117.1308257,N,12109.9842680,E,4,24,0.62,6.129,M,9.022,M,1.0,0010*68
$GNGGA,081542.200,3117.1312139,N,12109.9860188,E,4,24,0.62,6.072,M,9.022,M,1.0,0010*6A
$GNGGA,081542.400,3117.1315635,N,12109.9877537,E,4,24,0.62,5.985,M,9.022,M,1.0,0010*64
$GNGGA,081542.600,3117.1319389,N,12109.9894762,E,4,24,0.62,5.916,M,9.022,M,1.0,0010*6D
$GNGGA,081542.800,3117.1323129,N,12109.9911915,E,4,24,0.62,5.861,M,9.022,M,1.0,0010*61
$GNGGA,081543.000,3117.1326804,N,12109.9928829,E,4,24,0.62,5.779,M,9.022,M,1.0,0010*69
$GNGGA,081543.200,3117.1330338,N,12109.9945804,E,4,24,0.62,5.748,M,9.022,M,1.0,0010*6E
$GNGGA,081543.400,3117.1333936,N,12109.9962531,E,4,24,0.62,5.729,M,9.022,M,1.0,0010*66
$GNGGA,081543.600,3117.1337567,N,12109.9979202,E,4,24,0.62,5.731,M,9.022,M,1.0,0010*6C
$GNGGA,081543.800,3117.1341172,N,12109.9995820,E,4,24,0.62,5.726,M,9.022,M,1.0,0010*6D
$GNGGA,081544.000,3117.1344733,N,12110.0012384,E,4,24,0.62,5.732,M,9.022,M,1.0,0010*63
$GNGGA,081544.200,3117.1348262,N,12110.0028816,E,4,24,0.62,5.718,M,9.023,M,1.0,0010*6C
$GNGGA,081544.400,3117.1351791,N,12110.0045089,E,4,24,0.62,5.675,M,9.023,M,1.0,0010*64
$GNGGA,081544.600,3117.1355237,N,12110.0061273,E,4,24,0.62,5.603,M,9.023,M,1.0,0010*6B
$GNGGA,081544.800,3117.1358736,N,12110.0077389,E,4,24,0.62,5.539,M,9.023,M,1.0,0010*65
$GNGGA,081545.000,3117.1362294,N,12110.0093524,E,4,24,0.62,5.440,M,9.023,M,1.0,0010*6C
$GNGGA,081545.200,3117.1365907,N,12110.0109485,E,4,24,0.62,5.397,M,9.023,M,1.0,0010*6D
$GNGGA,081545.400,3117.1369536,N,12110.0125533,E,4,24,0.62,5.276,M,9.023,M,1.0,0010*65
$GNGGA,081545.600,3117.1373246,N,12110.0141516,E,4,24,0.62,5.236,M,9.023,M,1.0,0010*6D
$GNGGA,081545.800,3117.1376908,N,12110.0157378,E,4,24,0.62,5.280,M,9.023,M,1.0,0010*63
$GNGGA,081546.000,3117.1380727,N,12110.0173373,E,4,24,0.62,5.281,M,9.023,M,1.0,0010*6E
$GNGGA,081546.200,3117.1384555,N,12110.0189199,E,4,24,0.62,5.209,M,9.023,M,1.0,0010*6C
$GNGGA,081546.400,3117.1388673,N,12110.0204959,E,4,24,0.62,5.166,M,9.023,M,1.0,0010*69
$GNGGA,081546.600,3117.1392788,N,12110.0220718,E,4,24,0.62,5.161,M,9.023,M,1.0,0010*6F
$GNGGA,081546.800,3117.1397029,N,12110.0236399,E,4,24,0.62,5.158,M,9.023,M,1.0,0010*68
$GNGGA,081547.000,3117.1401348,N,12110.0252064,E,4,24,0.62,5.127,M,9.023,M,1.0,0010*66
$GNGGA,081547.200,3117.1405647,N,12110.0267721,E,4,24,0.62,5.083,M,9.023,M,1.0,0010*65
$GNGGA,081547.400,3117.1409977,N,12110.0283516,E,4,24,0.62,5.044,M,9.023,M,1.0,0010*64
$GNGGA,081547.600,3117.1414215,N,12110.0299327,E,4,24,0.62,5.039,M,9.023,M,1.0,0010*60
$GNGGA,081547.800,3117.1418374,N,12110.0315250,E,4,24,0.62,5.108,M,9.024,M,1.0,0010*64
$GNGGA,081548.000,3117.1422399,N,12110.0331211,E,4,24,0.62,5.144,M,9.024,M,1.0,0010*62
$GNGGA,081548.200,3117.1426416,N,12110.0347339,E,4,24,0.62,5.159,M,9.024,M,1.0,0010*62
$GNGGA,081548.400,3117.1430318,N,12110.0363433,E,4,24,0.62,5.208,M,9.024,M,1.0,0010*66
$GNGGA,081548.600,3117.1434182,N,12110.0379560,E,4,24,0.62,5.206,M,9.024,M,1.0,0010*63
$GNGGA,081548.800,3117.1438032,N,12110.0395675,E,4,24,0.62,5.162,M,9.024,M,1.0,0010*6F
$GNGGA,081549.000,3117.1441762,N,12110.0411874,E,4,24,0.62,5.140,M,9.024,M,1.0,0010*6E
$GNGGA,081549.200,3117.1445489,N,12110.0427995,E,4,24,0.62,5.093,M,9.024,M,1.0,0010*6A
$GNGGA,081549.400,3117.1449187,N,12110.0444240,E,4,24,0.62,5.057,M,9.024,M,1.0,0010*65
$GNGGA,081549.600,3117.1452830,N,12110.0460532,E,4,24,0.62,5.086,M,9.024,M,1.0,0010*60
$GNGGA,081549.800,3117.1456535,N,12110.0476883,E,4,24,0.62,5.114,M,9.024,M,1.0,0010*68
$GNGGA,081550.000,3117.1460154,N,12110.0493348,E,4,24,0.62,5.119,M,9.024,M,1.0,0010*64
$GNGGA,081550.200,3117.1463709,N,12110.0509864,E,4,24,0.62,5.117,M,9.024,M,1.0,0010*62
$GNGGA,081550.400,3117.1467312,N,12110.0526307,E,4,24,0.62,5.112,M,9.024,M,1.0,0010*68
$GNGGA,081550.600,3117.1470916,N,12110.0542947,E,4,24,0.62,5.089,M,9.024,M,1.0,0010*6D
$GNGGA,081550.800,3117.1474483,N,12110.0559570,E,4,24,0.62,5.076,M,9.024,M,1.0,0010*64
$GNGGA,081551.000,3117.1478001,N,12110.0576386,E,4,24,0.62,5.066,M,9.024,M,1.0,0010*6C
$GNGGA,081551.200,3117.1481514,N,12110.0593137,E,4,24,0.62,5.057,M,9.024,M,1.0,0010*68
$GNGGA,081551.400,3117.1484954,N,12110.0609974,E,4,24,0.62,5.060,M,9.025,M,1.0,0010*69
$GNGGA,081551.600,3117.1488399,N,12110.0626956,E,4,24,0.62,5.089,M,9.025,M,1.0,0010*66
$GNGGA,081551.800,3117.1491909,N,12110.0643822,E,4,24,0.62,5.077,M,9.025,M,1.0,0010*63
$GNGGA,081552.000,3117.1495395,N,12110.0660794,E,4,24,0.62,5.062,M,9.025,M,1.0,0010*64
$GNGGA,081552.200,3117.1498887,N,12110.0677771,E,4,24,0.62,5.068,M,9.025,M,1.0,0010*64
$GNGGA,081552.400,3117.1502387,N,12110.0694828,E,4,24,0.62,5.081,M,9.025,M,1.0,0010*62
$GNGGA,081552.600,3117.1505946,N,12110.0711932,E,4,24,0.62,5.127,M,9.025,M,1.0,0010*6B
$GNGGA,081552.800,3117.1509462,N,12110.0728981,E,4,24,0.62,5.159,M,9.025,M,1.0,0010*69
$GNGGA,081553.000,3117.1513031,N,12110.0746138,E,4,24,0.62,5.145,M,9.025,M,1.0,0010*66
$GNGGA,081553.200,3117.1516628,N,12110.0763344,E,4,24,0.62,5.168,M,9.025,M,1.0,0010*6E
$GNGGA,081553.400,3117.1520174,N,12110.0780565,E,4,24,0.62,5.159,M,9.025,M,1.0,0010*69
$GNGGA,081553.600,3117.1523783,N,12110.0797830,E,4,24,0.62,5.148,M,9.025,M,1.0,0010*6D
$GNGGA,081553.800,3117.1527404,N,12110.0815169,E,4,24,0.62,5.107,M,9.025,M,1.0,0010*60
$GNGGA,081554.000,3117.1531166,N,12110.0832566,E,4,24,0.62,5.125,M,9.025,M,1.0,0010*67
$GNGGA,081554.200,3117.1534935,N,12110.0849986,E,4,24,0.62,5.116,M,9.025,M,1.0,0010*60
$GNGGA,081554.400,3117.1538801,N,12110.0867499,E,4,24,0.62,5.093,M,9.025,M,1.0,0010*6F
$GNGGA,081554.600,3117.1542690,N,12110.0884845,E,4,25,0.61,5.103,M,9.026,M,1.0,0010*6F
$GNGGA,081554.800,3117.1546661,N,12110.0902334,E,4,25,0.61,5.127,M,9.026,M,1.0,0010*6F
$GNGGA,081555.000,3117.1550593,N,12110.0919836,E,4,25,0.61,5.117,M,9.026,M,1.0,0010*6F
$GNGGA,081555.200,3117.1554557,N,12110.0937368,E,4,25,0.61,5.093,M,9.026,M,1.0,0010*60
$GNGGA,081555.400,3117.1558559,N,12110.0954922,E,4,25,0.61,5.122,M,9.026,M,1.0,0010*6E
$GNGGA,081555.600,3117.1562537,N,12110.0972479,E,4,25,0.61,5.111,M,9.026,M,1.0,0010*6A
$GNGGA,081555.800,3117.1566568,N,12110.0990044,E,4,25,0.61,5.074,M,9.026,M,1.0,0010*6E
$GNGGA,081556.000,3117.1570615,N,12110.1007752,E,4,25,0.61,5.083,M,9.026,M,1.0,0010*65
$GNGGA,081556.200,3117.1574662,N,12110.1025496,E,4,25,0.61,5.125,M,9.026,M,1.0,0010*65
$GNGGA,081556.400,3117.1578688,N,12110.1043290,E,4,25,0.61,5.110,M,9.026,M,1.0,0010*6D
$GNGGA,081556.600,3117.1582848,N,12110.1061102,E,4,25,0.61,5.153,M,9.026,M,1.0,0010*67
$GNGGA,081556.800,3117.1586945,N,12110.1078917,E,4,25,0.61,5.176,M,9.026,M,1.0,0010*62
$GNGGA,081557.000,3117.1591004,N,12110.1096756,E,4,25,0.61,5.216,M,9.026,M,1.0,0010*6F
$GNGGA,081557.200,3117.1595135,N,12110.1114644,E,4,25,0.61,5.257,M,9.026,M,1.0,0010*66
$GNGGA,081557.400,3117.1599267,N,12110.1132487,E,4,25,0.61,5.255,M,9.026,M,1.0,0010*63
$GNGGA,081557.600,3117.1603299,N,12110.1150466,E,4,25,0.61,5.207,M,9.026,M,1.0,0010*6C
$GNGGA,081557.800,3117.1607358,N,12110.1168431,E,4,25,0.61,5.218,M,9.026,M,1.0,0010*6D
$GNGGA,081558.000,3117.1611394,N,12110.1186489,E,4,25,0.61,5.192,M,9.027,M,1.0,0010*6E
$GNGGA,081558.200,3117.1615486,N,12110.1204554,E,4,25,0.61,5.176,M,9.027,M,1.0,0010*6E
$GNGGA,081558.400,3117.1619607,N,12110.1222724,E,4,25,0.61,5.078,M,9.027,M,1.0,0010*61
$GNGGA,081558.600,3117.1623779,N,12110.1240797,E,4,25,0.61,5.025,M,9.027,M,1.0,0010*66
$GNGGA,081558.800,3117.1627926,N,12110.1259019,E,4,25,0.61,5.015,M,9.027,M,1.0,0010*62
$GNGGA,081559.000,3117.1632046,N,12110.1277174,E,4,25,0.61,5.065,M,9.027,M,1.0,0010*61
$GNGGA,081559.200,3117.1636242,N,12110.1295440,E,4,25,0.61,5.135,M,9.027,M,1.0,0010*6B
$GNGGA,081559.400,3117.1640349,N,12110.1313881,E,4,24,0.62,5.108,M,9.027,M,1.0,0010*64
$GNGGA,081559.600,3117.1644509,N,12110.1332284,E,4,24,0.62,5.098,M,9.027,M,1.0,0010*64
$GNGGA,081559.800,3117.1648709,N,12110.1350706,E,4,24,0.62,5.100,M,9.027,M,1.0,0010*6F
$GNGGA,081600.000,3117.1652750,N,12110.1369171,E,4,24,0.62,5.071,M,9.027,M,1.0,0010*64
$GNGGA,081600.200,3117.1656912,N,12110.1387585,E,4,24,0.62,5.041,M,9.027,M,1.0,0010*66
$GNGGA,081600.400,3117.1661090,N,12110.1406223,E,4,24,0.62,5.051,M,9.027,M,1.0,0010*63
$GNGGA,081600.600,3117.1665349,N,12110.1424747,E,4,24,0.62,5.091,M,9.027,M,1.0,0010*69
$GNGGA,081600.800,3117.1669594,N,12110.1443306,E,4,24,0.62,5.061,M,9.027,M,1.0,0010*62
$GNGGA,081601.000,3117.1673641,N,12110.1461933,E,4,24,0.62,5.066,M,9.028,M,1.0,0010*6F
$GNGGA,081601.200,3117.1678038,N,12110.1480467,E,4,25,0.61,5.108,M,9.028,M,1.0,0010*66
$GNGGA,081601.400,3117.1682247,N,12110.1499044,E,4,25,0.61,5.085,M,9.028,M,1.0,0010*66
$GNGGA,081601.600,3117.1686503,N,12110.1517608,E,4,25,0.61,5.092,M,9.028,M,1.0,0010*68
$GNGGA,081601.800,3117.1690756,N,12110.1536137,E,4,25,0.61,5.081,M,9.028,M,1.0,0010*69
$GNGGA,081602.000,3117.1694908,N,12110.1554642,E,4,25,0.61,5.067,M,9.028,M,1.0,0010*6A
$GNGGA,081602.200,3117.1699001,N,12110.1573146,E,4,25,0.61,5.098,M,9.028,M,1.0,0010*63
$GNGGA,081602.400,3117.1703089,N,12110.1591681,E,4,25,0.61,5.066,M,9.028,M,1.0,0010*66
$GNGGA,081602.600,3117.1707301,N,12110.1610068,E,4,24,0.62,5.087,M,9.028,M,1.0,0010*65
$GNGGA,081602.800,3117.1711576,N,12110.1628430,E,4,24,0.62,5.093,M,9.028,M,1.0,0010*6D
$GNGGA,081603.000,3117.1715914,N,12110.1646744,E,4,24,0.62,5.060,M,9.028,M,1.0,0010*6C
$GNGGA,081603.200,3117.1720423,N,12110.1664754,E,4,24,0.62,5.068,M,9.028,M,1.0,0010*68
$GNGGA,081603.400,3117.1724774,N,12110.1682768,E,4,24,0.62,5.041,M,9.028,M,1.0,0010*67
$GNGGA,081603.600,3117.1729027,N,12110.1700725,E,4,24,0.62,5.029,M,9.028,M,1.0,0010*65
$GNGGA,081603.800,3117.1733231,N,12110.1718547,E,4,24,0.62,5.044,M,9.028,M,1.0,0010*61
$GNGGA,081604.000,3117.1737313,N,12110.1736286,E,4,24,0.62,5.038,M,9.028,M,1.0,0010*66
$GNGGA,081604.200,3117.1741153,N,12110.1753854,E,4,24,0.62,5.005,M,9.029,M,1.0,0010*6A
$GNGGA,081604.400,3117.1744883,N,12110.1771396,E,4,23,0.65,4.991,M,9.029,M,1.0,0010*6D
$GNGGA,081604.600,3117.1748529,N,12110.1788963,E,4,24,0.62,4.943,M,9.029,M,1.0,0010*67
$GNGGA,081604.800,3117.1752000,N,12110.1806326,E,4,24,0.62,4.930,M,9.029,M,1.0,0010*6A
$GNGGA,081605.000,3117.1755434,N,12110.1823580,E,4,24,0.62,4.950,M,9.029,M,1.0,0010*6C
$GNGGA,081605.200,3117.1758705,N,12110.1840668,E,4,24,0.62,4.956,M,9.029,M,1.0,0010*64
$GNGGA,081605.400,3117.1761885,N,12110.1857673,E,4,23,0.65,4.954,M,9.029,M,1.0,0010*61
$GNGGA,081605.600,3117.1764911,N,12110.1874594,E,4,24,0.62,4.925,M,9.029,M,1.0,0010*67
$GNGGA,081605.800,3117.1767953,N,12110.1891484,E,4,24,0.62,4.990,M,9.029,M,1.0,0010*69
$GNGGA,081606.000,3117.1770782,N,12110.1908254,E,4,25,0.61,5.033,M,9.029,M,1.0,0010*6F
$GNGGA,081606.200,3117.1773564,N,12110.1924917,E,4,25,0.61,5.050,M,9.029,M,1.0,0010*63
$GNGGA,081606.400,3117.1776207,N,12110.1941408,E,4,24,0.63,5.054,M,9.029,M,1.0,0010*65
$GNGGA,081606.600,3117.1778398,N,12110.1957910,E,4,23,0.64,4.977,M,9.029,M,1.0,0010*64
$GNGGA,081606.800,3117.1780691,N,12110.1974205,E,4,23,0.64,4.992,M,9.029,M,1.0,0010*64
$GNGGA,081607.000,3117.1782860,N,12110.1990550,E,4,24,0.62,4.983,M,9.029,M,1.0,0010*63
$GNGGA,081607.200,3117.1784883,N,12110.2006715,E,4,24,0.62,4.948,M,9.029,M,1.0,0010*6B
$GNGGA,081607.400,3117.1786846,N,12110.2022761,E,4,24,0.62,4.964,M,9.029,M,1.0,0010*6D
$GNGGA,081607.600,3117.1788761,N,12110.2038843,E,4,24,0.62,5.005,M,9.030,M,1.0,0010*68
$GNGGA,081607.800,3117.1790639,N,12110.2054650,E,4,24,0.62,5.001,M,9.030,M,1.0,0010*61
$GNGGA,081608.000,3117.1792513,N,12110.2070296,E,4,24,0.62,5.053,M,9.030,M,1.0,0010*60
$GNGGA,081608.200,3117.1794142,N,12110.2085880,E,4,24,0.62,5.046,M,9.030,M,1.0,0010*67
$GNGGA,081608.400,3117.1795854,N,12110.2101508,E,4,24,0.62,5.099,M,9.030,M,1.0,0010*6C
$GNGGA,081608.600,3117.1797475,N,12110.2116842,E,4,24,0.62,5.116,M,9.030,M,1.0,0010*60
$GNGGA,081608.800,3117.1799103,N,12110.2132036,E,4,24,0.62,5.108,M,9.030,M,1.0,0010*66
$GNGGA,081609.000,3117.1800718,N,12110.2147089,E,4,24,0.62,5.069,M,9.030,M,1.0,0010*6C
$GNGGA,081609.200,3117.1802194,N,12110.2161963,E,4,24,0.62,5.119,M,9.030,M,1.0,0010*61
$GNGGA,081609.400,3117.1803733,N,12110.2176480,E,4,24,0.62,5.129,M,9.030,M,1.0,0010*68
$GNGGA,081609.600,3117.1805281,N,12110.2190555,E,4,24,0.62,5.106,M,9.030,M,1.0,0010*6C
$GNGGA,081609.800,3117.1806762,N,12110.2204352,E,4,24,0.62,5.181,M,9.030,M,1.0,0010*69
$GNGGA,081610.000,3117.1808159,N,12110.2217799,E,4,24,0.62,5.236,M,9.030,M,1.0,0010*67
$GNGGA,081610.200,3117.1809531,N,12110.2230871,E,4,25,0.61,5.275,M,9.030,M,1.0,0010*67
$GNGGA,081610.400,3117.1810814,N,12110.2243540,E,4,25,0.61,5.291,M,9.030,M,1.0,0010*62
$GNGGA,081610.600,3117.1811987,N,12110.2255869,E,4,25,0.61,5.240,M,9.030,M,1.0,0010*67
$GNGGA,081610.800,3117.1812939,N,12110.2267992,E,4,25,0.61,5.271,M,9.030,M,1.0,0010*69
$GNGGA,081611.000,3117.1813812,N,12110.2279824,E,4,25,0.61,5.256,M,9.030,M,1.0,0010*6F
$GNGGA,081611.200,3117.1814455,N,12110.2291259,E,4,25,0.61,5.136,M,9.030,M,1.0,0010*66
$GNGGA,081611.400,3117.1814855,N,12110.2302481,E,4,25,0.61,5.082,M,9.030,M,1.0,0010*6A
$GNGGA,081611.600,3117.1814953,N,12110.2313668,E,4,25,0.61,5.129,M,9.030,M,1.0,0010*6A
$GNGGA,081611.800,3117.1814802,N,12110.2324625,E,4,25,0.61,5.136,M,9.031,M,1.0,0010*63
$GNGGA,081612.000,3117.1814087,N,12110.2335295,E,4,25,0.61,5.145,M,9.031,M,1.0,0010*66
$GNGGA,081612.200,3117.1812865,N,12110.2345676,E,4,25,0.61,5.189,M,9.031,M,1.0,0010*68
$GNGGA,081612.400,3117.1811001,N,12110.2355684,E,4,25,0.61,5.200,M,9.031,M,1.0,0010*69
$GNGGA,081612.600,3117.1808542,N,12110.2365295,E,4,25,0.61,5.244,M,9.031,M,1.0,0010*66
$GNGGA,081612.800,3117.1805321,N,12110.2374206,E,4,25,0.61,5.283,M,9.031,M,1.0,0010*67
$GNGGA,081613.000,3117.1801517,N,12110.2382561,E,4,25,0.61,5.283,M,9.031,M,1.0,0010*66
$GNGGA,081613.200,3117.1796975,N,12110.2390225,E,4,25,0.61,5.300,M,9.031,M,1.0,0010*63
$GNGGA,081613.400,3117.1791638,N,12110.2397110,E,4,25,0.61,5.332,M,9.031,M,1.0,0010*67
$GNGGA,081613.600,3117.1785676,N,12110.2403159,E,4,25,0.61,5.275,M,9.031,M,1.0,0010*6F
$GNGGA,081613.800,3117.1779285,N,12110.2408210,E,4,25,0.61,5.261,M,9.031,M,1.0,0010*6A
$GNGGA,081614.000,3117.1772459,N,12110.2412422,E,4,25,0.61,5.243,M,9.031,M,1.0,0010*65
$GNGGA,081614.200,3117.1765224,N,12110.2415880,E,4,25,0.61,5.200,M,9.031,M,1.0,0010*69
$GNGGA,081614.400,3117.1757761,N,12110.2418582,E,4,25,0.61,5.181,M,9.031,M,1.0,0010*62
$GNGGA,081614.600,3117.1750172,N,12110.2420849,E,4,25,0.61,5.196,M,9.031,M,1.0,0010*64
$GNGGA,081614.800,3117.1742303,N,12110.2422687,E,4,25,0.61,5.225,M,9.031,M,1.0,0010*68
$GNGGA,081615.000,3117.1734203,N,12110.2424131,E,4,25,0.61,5.205,M,9.031,M,1.0,0010*6F
$GNGGA,081615.200,3117.1725885,N,12110.2425239,E,4,25,0.61,5.162,M,9.031,M,1.0,0010*61
$GNGGA,081615.400,3117.1717286,N,12110.2426121,E,4,25,0.61,5.140,M,9.031,M,1.0,0010*66
$GNGGA,081615.600,3117.1708413,N,12110.2426736,E,4,25,0.61,5.107,M,9.031,M,1.0,0010*63
$GNGGA,081615.800,3117.1699377,N,12110.2427195,E,4,25,0.61,5.075,M,9.031,M,1.0,0010*6B
$GNGGA,081616.000,3117.1690137,N,12110.2427446,E,4,25,0.61,5.041,M,9.031,M,1.0,0010*63
$GNGGA,081616.200,3117.1680687,N,12110.2427742,E,4,25,0.61,5.045,M,9.031,M,1.0,0010*6F
$GNGGA,081616.400,3117.1671090,N,12110.2428063,E,4,25,0.61,4.982,M,9.031,M,1.0,0010*6F
$GNGGA,081616.600,3117.1661191,N,12110.2428367,E,4,25,0.61,5.024,M,9.031,M,1.0,0010*6F
$GNGGA,081616.800,3117.1651133,N,12110.2428698,E,4,24,0.62,5.041,M,9.031,M,1.0,0010*6E
$GNGGA,081617.000,3117.1640922,N,12110.2429060,E,4,24,0.62,5.047,M,9.031,M,1.0,0010*69
$GNGGA,081617.200,3117.1630583,N,12110.2429452,E,4,24,0.62,5.084,M,9.031,M,1.0,0010*61
$GNGGA,081617.400,3117.1620088,N,12110.2429822,E,4,24,0.62,5.105,M,9.031,M,1.0,0010*6B
$GNGGA,081617.600,3117.1609481,N,12110.2430174,E,4,24,0.62,5.111,M,9.031,M,1.0,0010*68
$GNGGA,081617.800,3117.1598681,N,12110.2430548,E,4,24,0.62,5.099,M,9.031,M,1.0,0010*65
$GNGGA,081618.000,3117.1587787,N,12110.2430905,E,4,24,0.62,5.053,M,9.031,M,1.0,0010*68
$GNGGA,081618.200,3117.1576751,N,12110.2431333,E,4,24,0.62,5.087,M,9.031,M,1.0,0010*68
$GNGGA,081618.400,3117.1565415,N,12110.2431631,E,4,24,0.62,5.089,M,9.031,M,1.0,0010*66
$GNGGA,081618.600,3117.1554067,N,12110.2432105,E,4,25,0.61,5.056,M,9.031,M,1.0,0010*64
$GNGGA,081618.800,3117.1542526,N,12110.2432535,E,4,25,0.61,5.040,M,9.031,M,1.0,0010*6D
$GNGGA,081619.000,3117.1530720,N,12110.2432994,E,4,25,0.61,5.026,M,9.031,M,1.0,0010*62
$GNGGA,081619.200,3117.1518775,N,12110.2433536,E,4,25,0.61,4.977,M,9.031,M,1.0,0010*63
$GNGGA,081619.400,3117.1506981,N,12110.2433893,E,4,25,0.61,4.872,M,9.031,M,1.0,0010*69
$GNGGA,081619.600,3117.1494905,N,12110.2434434,E,4,25,0.61,4.867,M,9.031,M,1.0,0010*6F
$GNGGA,081619.800,3117.1482975,N,12110.2434921,E,4,25,0.61,4.867,M,9.031,M,1.0,0010*68
$GNGGA,081620.000,3117.1471089,N,12110.2435445,E,4,25,0.61,4.906,M,9.031,M,1.0,0010*64
$GNGGA,081620.200,3117.1459084,N,12110.2435917,E,4,25,0.61,4.902,M,9.031,M,1.0,0010*6F
$GNGGA,081620.400,3117.1447165,N,12110.2436339,E,4,25,0.61,4.898,M,9.031,M,1.0,0010*6F
$GNGGA,081620.600,3117.1435190,N,12110.2436912,E,4,25,0.61,4.908,M,9.031,M,1.0,0010*69
$GNGGA,081620.800,3117.1423104,N,12110.2437458,E,4,25,0.61,4.921,M,9.031,M,1.0,0010*64
$GNGGA,081621.000,3117.1411074,N,12110.2438053,E,4,25,0.61,4.986,M,9.031,M,1.0,0010*67
$GNGGA,081621.200,3117.1398942,N,12110.2438599,E,4,23,0.66,5.000,M,9.031,M,1.0,0010*6B
$GNGGA,081621.400,3117.1386561,N,12110.2439033,E,4,25,0.61,5.047,M,9.031,M,1.0,0010*69
$GNGGA,081621.600,3117.1374222,N,12110.2439747,E,4,23,0.66,5.050,M,9.031,M,1.0,0010*65
$GNGGA,081621.800,3117.1361907,N,12110.2440232,E,4,24,0.63,5.101,M,9.031,M,1.0,0010*6D
$GNGGA,081622.000,3117.1349527,N,12110.2440819,E,4,23,0.66,5.120,M,9.031,M,1.0,0010*60
$GNGGA,081622.200,3117.1337017,N,12110.2441462,E,4,23,0.66,5.202,M,9.031,M,1.0,0010*6F
$GNGGA,081622.400,3117.1324548,N,12110.2442125,E,4,23,0.66,5.259,M,9.031,M,1.0,0010*6F
$GNGGA,081622.600,3117.1312078,N,12110.2442885,E,4,23,0.66,5.227,M,9.031,M,1.0,0010*64
$GNGGA,081622.800,3117.1299614,N,12110.2443789,E,4,23,0.66,5.187,M,9.031,M,1.0,0010*6F
$GNGGA,081623.000,3117.1287088,N,12110.2444616,E,4,23,0.66,5.178,M,9.031,M,1.0,0010*6A
$GNGGA,081623.200,3117.1274512,N,12110.2445449,E,4,23,0.66,5.147,M,9.031,M,1.0,0010*67
$GNGGA,081623.400,3117.1261973,N,12110.2446394,E,4,22,0.70,5.096,M,9.031,M,1.0,0010*61
$GNGGA,081623.600,3117.1249576,N,12110.2447312,E,4,22,0.70,5.036,M,9.031,M,1.0,0010*65
$GNGGA,081623.800,3117.1237122,N,12110.2448271,E,4,23,0.66,5.007,M,9.031,M,1.0,0010*68
$GNGGA,081624.000,3117.1224706,N,12110.2449200,E,4,23,0.66,5.008,M,9.031,M,1.0,0010*6D
$GNGGA,081624.200,3117.1212281,N,12110.2450102,E,4,23,0.66,4.991,M,9.031,M,1.0,0010*61
$GNGGA,081624.400,3117.1199974,N,12110.2451002,E,4,24,0.63,4.982,M,9.031,M,1.0,0010*66
$GNGGA,081624.600,3117.1187466,N,12110.2452029,E,4,24,0.63,4.979,M,9.031,M,1.0,0010*6B
$GNGGA,081624.800,3117.1174930,N,12110.2452943,E,4,24,0.63,5.027,M,9.031,M,1.0,0010*61
$GNGGA,081625.000,3117.1162352,N,12110.2453637,E,4,24,0.63,5.084,M,9.031,M,1.0,0010*65
$GNGGA,081625.200,3117.1149878,N,12110.2454457,E,4,24,0.62,5.106,M,9.031,M,1.0,0010*64
$GNGGA,081625.400,3117.1137410,N,12110.2455213,E,4,24,0.62,5.088,M,9.031,M,1.0,0010*69
$GNGGA,081625.600,3117.1125009,N,12110.2456184,E,4,23,0.65,5.063,M,9.031,M,1.0,0010*6F
$GNGGA,081625.800,3117.1112621,N,12110.2457178,E,4,23,0.66,4.995,M,9.032,M,1.0,0010*6A
$GNGGA,081626.000,3117.1100261,N,12110.2458198,E,4,23,0.66,4.960,M,9.032,M,1.0,0010*69
$GNGGA,081626.200,3117.1087815,N,12110.2459302,E,4,24,0.63,4.931,M,9.032,M,1.0,0010*6A
$GNGGA,081626.400,3117.1075373,N,12110.2460426,E,4,24,0.63,4.939,M,9.032,M,1.0,0010*69
$GNGGA,081626.600,3117.1062915,N,12110.2461539,E,4,24,0.63,4.938,M,9.032,M,1.0,0010*68
$GNGGA,081626.800,3117.1050469,N,12110.2462748,E,4,23,0.66,4.935,M,9.032,M,1.0,0010*69
$GNGGA,081627.000,3117.1038112,N,12110.2463943,E,4,23,0.66,4.937,M,9.032,M,1.0,0010*61
$GNGGA,081627.200,3117.1025797,N,12110.2465356,E,4,23,0.66,4.923,M,9.032,M,1.0,0010*69
$GNGGA,081627.400,3117.1013650,N,12110.2466890,E,4,23,0.66,4.898,M,9.032,M,1.0,0010*63
$GNGGA,081627.600,3117.1001650,N,12110.2468208,E,4,24,0.63,4.916,M,9.032,M,1.0,0010*62
$GNGGA,081627.800,3117.0989474,N,12110.2469578,E,4,24,0.63,4.924,M,9.032,M,1.0,0010*60
$GNGGA,081628.000,3117.0977324,N,12110.2471053,E,4,24,0.63,5.045,M,9.032,M,1.0,0010*6E
$GNGGA,081628.200,3117.0965590,N,12110.2472455,E,4,25,0.61,5.057,M,9.032,M,1.0,0010*67
$GNGGA,081628.400,3117.0953870,N,12110.2474041,E,4,24,0.63,4.973,M,9.032,M,1.0,0010*6D
$GNGGA,081628.600,3117.0941788,N,12110.2475887,E,4,24,0.63,5.222,M,9.032,M,1.0,0010*69
$GNGGA,081628.800,3117.0930173,N,12110.2477450,E,4,25,0.61,5.136,M,9.032,M,1.0,0010*62
$GNGGA,081629.000,3117.0918557,N,12110.2479087,E,4,24,0.63,5.178,M,9.032,M,1.0,0010*6A
$GNGGA,081629.200,3117.0907148,N,12110.2480724,E,4,24,0.63,5.176,M,9.032,M,1.0,0010*6A
$GNGGA,081629.400,3117.0895816,N,12110.2482228,E,4,24,0.63,5.229,M,9.032,M,1.0,0010*66
$GNGGA,081629.600,3117.0884624,N,12110.2483774,E,4,25,0.61,5.203,M,9.032,M,1.0,0010*6D
$GNGGA,081629.800,3117.0873704,N,12110.2485305,E,4,25,0.61,5.186,M,9.032,M,1.0,0010*62
$GNGGA,081630.000,3117.0862813,N,12110.2486792,E,4,25,0.61,5.129,M,9.032,M,1.0,0010*67
$GNGGA,081630.200,3117.0852085,N,12110.2488270,E,4,26,0.60,5.115,M,9.032,M,1.0,0010*6B
$GNGGA,081630.400,3117.0841498,N,12110.2489688,E,4,26,0.60,5.113,M,9.032,M,1.0,0010*63
$GNGGA,081630.600,3117.0831270,N,12110.2491069,E,4,26,0.60,5.118,M,9.032,M,1.0,0010*6D
$GNGGA,081630.800,3117.0821366,N,12110.2492613,E,4,26,0.60,5.104,M,9.032,M,1.0,0010*61
$GNGGA,081631.000,3117.0811397,N,12110.2494012,E,4,26,0.60,5.020,M,9.032,M,1.0,0010*63
$GNGGA,081631.200,3117.0801672,N,12110.2495280,E,4,26,0.60,4.948,M,9.032,M,1.0,0010*60
$GNGGA,081631.400,3117.0792021,N,12110.2496776,E,4,26,0.60,5.039,M,9.032,M,1.0,0010*62
$GNGGA,081631.600,3117.0782928,N,12110.2497652,E,4,26,0.60,4.936,M,9.032,M,1.0,0010*60
$GNGGA,081631.800,3117.0773735,N,12110.2498897,E,4,26,0.60,4.936,M,9.032,M,1.0,0010*6A
$GNGGA,081632.000,3117.0764653,N,12110.2500026,E,4,26,0.60,4.993,M,9.032,M,1.0,0010*6B
$GNGGA,081632.200,3117.0755966,N,12110.2500968,E,4,25,0.61,4.962,M,9.032,M,1.0,0010*6D
$GNGGA,081632.400,3117.0747367,N,12110.2501778,E,4,25,0.61,4.954,M,9.032,M,1.0,0010*68
$GNGGA,081632.600,3117.0739029,N,12110.2502580,E,4,25,0.61,4.954,M,9.032,M,1.0,0010*6C
$GNGGA,081632.800,3117.0730911,N,12110.2503177,E,4,25,0.61,4.928,M,9.032,M,1.0,0010*6F
$GNGGA,081633.000,3117.0722946,N,12110.2503585,E,4,25,0.61,4.887,M,9.032,M,1.0,0010*6A
$GNGGA,081633.200,3117.0715109,N,12110.2503641,E,4,25,0.61,4.897,M,9.032,M,1.0,0010*65
$GNGGA,081633.400,3117.0707478,N,12110.2503187,E,4,25,0.61,4.885,M,9.032,M,1.0,0010*6D
$GNGGA,081633.600,3117.0699922,N,12110.2502368,E,4,25,0.61,4.898,M,9.032,M,1.0,0010*65
$GNGGA,081633.800,3117.0692485,N,12110.2500902,E,4,25,0.61,4.928,M,9.032,M,1.0,0010*6E
$GNGGA,081634.000,3117.0685286,N,12110.2498841,E,4,25,0.61,4.948,M,9.032,M,1.0,0010*62
$GNGGA,081634.200,3117.0678171,N,12110.2496506,E,4,25,0.61,4.953,M,9.032,M,1.0,0010*63
$GNGGA,081634.400,3117.0671338,N,12110.2493550,E,4,24,0.63,4.935,M,9.032,M,1.0,0010*66
$GNGGA,081634.600,3117.0664585,N,12110.2490224,E,4,24,0.63,4.924,M,9.032,M,1.0,0010*67
$GNGGA,081634.800,3117.0657982,N,12110.2486692,E,4,24,0.63,4.921,M,9.032,M,1.0,0010*69
$GNGGA,081635.000,3117.0651606,N,12110.2482375,E,4,24,0.63,4.868,M,9.032,M,1.0,0010*61
$GNGGA,081635.200,3117.0645256,N,12110.2477659,E,4,24,0.63,4.811,M,9.032,M,1.0,0010*68
$GNGGA,081635.400,3117.0639178,N,12110.2472293,E,4,24,0.63,4.828,M,9.032,M,1.0,0010*67
$GNGGA,081635.600,3117.0633293,N,12110.2466677,E,4,24,0.63,4.848,M,9.032,M,1.0,0010*64
$GNGGA,081635.800,3117.0627682,N,12110.2460326,E,4,24,0.63,4.865,M,9.032,M,1.0,0010*63
$GNGGA,081636.000,3117.0622141,N,12110.2453643,E,4,24,0.63,4.882,M,9.032,M,1.0,0010*6A
$GNGGA,081636.200,3117.0616759,N,12110.2446472,E,4,24,0.63,4.906,M,9.032,M,1.0,0010*69
$GNGGA,081636.400,3117.0611571,N,12110.2438730,E,4,24,0.63,4.913,M,9.032,M,1.0,0010*68
$GNGGA,081636.600,3117.0606537,N,12110.2430528,E,4,24,0.63,4.884,M,9.032,M,1.0,0010*62
$GNGGA,081636.800,3117.0601716,N,12110.2421910,E,4,24,0.63,4.905,M,9.032,M,1.0,0010*65
$GNGGA,081637.000,3117.0597063,N,12110.2412904,E,4,24,0.63,4.906,M,9.032,M,1.0,0010*63
$GNGGA,081637.200,3117.0592596,N,12110.2403539,E,4,24,0.63,4.857,M,9.032,M,1.0,0010*6C
$GNGGA,081637.400,3117.0588188,N,12110.2393940,E,4,24,0.63,4.870,M,9.032,M,1.0,0010*63
$GNGGA,081637.600,3117.0584070,N,12110.2383948,E,4,24,0.63,4.952,M,9.032,M,1.0,0010*63
$GNGGA,081637.800,3117.0580009,N,12110.2373679,E,4,24,0.63,4.880,M,9.032,M,1.0,0010*6B
$GNGGA,081638.000,3117.0576072,N,12110.2363135,E,4,24,0.63,4.814,M,9.032,M,1.0,0010*6A
$GNGGA,081638.200,3117.0572231,N,12110.2352479,E,4,24,0.63,4.833,M,9.032,M,1.0,0010*63
$GNGGA,081638.400,3117.0568453,N,12110.2341450,E,4,24,0.63,4.834,M,9.031,M,1.0,0010*61
$GNGGA,081638.600,3117.0564935,N,12110.2330233,E,4,24,0.63,4.853,M,9.031,M,1.0,0010*66
$GNGGA,081638.800,3117.0561606,N,12110.2318841,E,4,24,0.63,4.860,M,9.031,M,1.0,0010*67
$GNGGA,081639.000,3117.0558306,N,12110.2307075,E,4,24,0.63,4.868,M,9.031,M,1.0,0010*68
$GNGGA,081639.200,3117.0555161,N,12110.2295169,E,4,24,0.63,4.869,M,9.031,M,1.0,0010*63
$GNGGA,081639.400,3117.0551961,N,12110.2283098,E,4,24,0.63,4.926,M,9.031,M,1.0,0010*6B
$GNGGA,081639.600,3117.0548886,N,12110.2270657,E,4,24,0.63,4.890,M,9.031,M,1.0,0010*6C
$GNGGA,081639.800,3117.0545775,N,12110.2258068,E,4,24,0.63,4.896,M,9.031,M,1.0,0010*6A
$GNGGA,081640.000,3117.0542680,N,12110.2245550,E,4,24,0.63,4.959,M,9.031,M,1.0,0010*60
$GNGGA,081640.200,3117.0539391,N,12110.2232801,E,4,24,0.63,4.991,M,9.031,M,1.0,0010*66
$GNGGA,081640.400,3117.0536142,N,12110.2219829,E,4,24,0.63,5.014,M,9.031,M,1.0,0010*65
$GNGGA,081640.600,3117.0532953,N,12110.2206654,E,4,24,0.63,4.999,M,9.031,M,1.0,0010*6C
$GNGGA,081640.800,3117.0529766,N,12110.2193250,E,4,24,0.63,4.950,M,9.031,M,1.0,0010*6A
$GNGGA,081641.000,3117.0526373,N,12110.2179639,E,4,24,0.63,4.939,M,9.031,M,1.0,0010*6C
$GNGGA,081641.200,3117.0522894,N,12110.2165866,E,4,24,0.63,4.928,M,9.031,M,1.0,0010*61
$GNGGA,081641.400,3117.0519389,N,12110.2152037,E,4,24,0.63,4.940,M,9.031,M,1.0,0010*6E
